{
  "races": [
    {
      "name": "FIA FORMULA 2: The Championship Australia 2025",
      "location": "Melbourne",
      "latitude": -37.8373,
      "longitude": 144.9666,
      "round": 1,
      "sessions": {
        "practice": "2025-03-13T23:00:00Z",
        "qualifying": "2025-03-14T06:30:00Z",
        "sprint": "2025-03-15T03:15:00Z",
        "feature": "2025-03-16T00:30:00Z"
      }
    },
    {
      "name": "FIA FORMULA 2: The Championship Bahrain 2025",
      "location": "Sakhir",
      "latitude": 26.037,
      "longitude": 50.5112,
      "round": 2,
      "sessions": {
        "practice": "2025-04-11T09:05:00Z",
        "qualifying": "2025-04-11T13:55:00Z",
        "sprint": "2025-04-12T14:15:00Z",
        "feature": "2025-04-13T11:25:00Z"
      }
    },
    {
      "name": "FIA FORMULA 2: The Championship Saudi Arabia 2025",
      "location": "Jeddah",
      "latitude": 21.485811,
      "longitude": 39.192505,
      "round": 3,
      "sessions": {
        "practice": "2025-04-18T09:55:00Z",
        "qualifying": "2025-04-18T15:00:00Z",
        "sprint": "2025-04-19T15:15:00Z",
        "feature": "2025-04-20T13:25:00Z"
      }
    },
    {
      "name": "FIA FORMULA 2: The Championship Emilia Romagna 2025",
      "location": "Imola",
      "latitude": 44.344576,
      "longitude": 11.713808,
      "round": 4,
      "sessions": {
        "practice": "2025-05-16T01:55:00Z",
        "qualifying": "2025-05-16T05:55:00Z",
        "sprint": "2025-05-17T00:35:00Z",
        "feature": "2025-05-18T00:40:00Z"
      }
    },
    {
      "name": "FIA FORMULA 2: The Championship Monaco 2025",
      "location": "Monte Carlo",
      "latitude": 43.7338,
      "longitude": 7.4215,
      "round": 5,
      "sessions": {
        "practice": "2025-05-22T09:55:00Z",
        "qualifying": "2025-05-23T13:55:00Z",
        "sprint": "2025-05-24T08:35:00Z",
        "feature": "2025-05-25T08:40:00Z"
      }
    },
    {
      "name": "FIA FORMULA 2: The Championship Spain 2025",
      "location": "Catalunya",
      "latitude": 41.5638,
      "longitude": 2.2585,
      "round": 6,
      "sessions": {
        "practice": "2025-05-30T09:55:00Z",
        "qualifying": "2025-05-30T13:55:00Z",
        "sprint": "2025-05-31T08:35:00Z",
        "feature": "2025-06-01T08:40:00Z"
      }
    },
    {
      "name": "FIA FORMULA 2: The Championship Austria 2025",
      "location": "Spielberg",
      "latitude": 47.2225,
      "longitude": 14.7607,
      "round": 7,
      "sessions": {
        "practice": "2025-06-27T09:55:00Z",
        "qualifying": "2025-06-27T13:55:00Z",
        "sprint": "2025-06-28T08:35:00Z",
        "feature": "2025-06-29T08:40:00Z"
      }
    },
    {
      "name": "FIA FORMULA 2: The Championship Britain 2025",
      "location": "Silverstone",
      "latitude": 52.0706,
      "longitude": -1.0174,
      "round": 8,
      "sessions": {
        "practice": "2025-07-04T10:55:00Z",
        "qualifying": "2025-07-04T14:55:00Z",
        "sprint": "2025-07-05T09:35:00Z",
        "feature": "2025-07-06T09:40:00Z"
      }
    },
    {
      "name": "FIA FORMULA 2: The Championship Belgium 2025",
      "location": "Spa-Francorchamps",
      "latitude": 50.444,
      "longitude": 5.9687,
      "round": 9,
      "sessions": {
        "practice": "2025-07-25T09:55:00Z",
        "qualifying": "2025-07-25T13:55:00Z",
        "sprint": "2025-07-26T08:35:00Z",
        "feature": "2025-07-27T08:40:00Z"
      }
    },
    {
      "name": "FIA FORMULA 2: The Championship Hungary 2025",
      "location": "Budapest",
      "latitude": 47.583,
      "longitude": 19.2526,
      "round": 10,
      "sessions": {
        "practice": "2025-08-01T09:55:00Z",
        "qualifying": "2025-08-01T13:55:00Z",
        "sprint": "2025-08-02T08:35:00Z",
        "feature": "2025-08-03T08:40:00Z"
      }
    },
    {
      "name": "FIA FORMULA 2: The Championship Italy 2025",
      "location": "Monza",
      "latitude": 45.6169,
      "longitude": 9.2825,
      "round": 11,
      "sessions": {
        "practice": "2025-09-05T09:55:00Z",
        "qualifying": "2025-09-05T13:55:00Z",
        "sprint": "2025-09-06T08:35:00Z",
        "feature": "2025-09-07T08:40:00Z"
      }
    },
    {
      "name": "FIA FORMULA 2: The Championship Azerbaijan 2025",
      "location": "Baku",
      "latitude": 40.3699,
      "longitude": 49.8433,
      "round": 12,
      "sessions": {
        "practice": "2025-09-19T07:55:00Z",
        "qualifying": "2025-09-19T11:55:00Z",
        "sprint": "2025-09-20T06:35:00Z",
        "feature": "2025-09-21T06:40:00Z"
      }
    },
    {
      "name": "FIA FORMULA 2: The Championship Qatar 2025",
      "location": "Doha",
      "latitude": 25.490292,
      "longitude": 51.45303,
      "round": 13,
      "sessions": {
        "practice": "2025-11-28T08:55:00Z",
        "qualifying": "2025-11-28T12:55:00Z",
        "sprint": "2025-11-29T07:35:00Z",
        "feature": "2025-11-30T07:40:00Z"
      }
    },
    {
      "name": "FIA FORMULA 2: The Championship Abu Dhabi 2025",
      "location": "Yas Marina",
      "latitude": 24.4821,
      "longitude": 54.3482,
      "round": 14,
      "sessions": {
        "practice": "2025-12-05T07:55:00Z",
        "qualifying": "2025-12-05T11:55:00Z",
        "sprint": "2025-12-06T06:35:00Z",
        "feature": "2025-12-07T06:40:00Z"
      }
    }
  ]
}
